City,City,Country,Latitude,Longitude,Date,Cloudiness,Humidity,Max Temperature,Wind Speed
0,victoria,HK,22.2855,114.1577,1623262696,26,89,301.66,2.68
1,sitka,US,57.0531,-135.33,1623262860,75,82,284.09,4.63
2,kumluca,TR,36.3703,30.2869,1623262861,2,80,295.04,0.14
3,mataura,NZ,-46.1927,168.8643,1623262861,85,91,282.86,1.01
4,padang,ID,-0.9492,100.3543,1623262862,72,87,298.01,1.6
5,moindou,NC,-21.6924,165.677,1623262863,6,75,289.12,1.85
6,cockburn town,TC,21.4612,-71.1419,1623262864,4,76,300.01,8.55
7,atambua,ID,-9.1061,124.8925,1623262865,33,89,294.29,2.16
8,touros,BR,-5.1989,-35.4608,1623262865,67,66,300.65,7.75
9,atuona,PF,-9.8,-139.0333,1623262866,19,76,299.77,6.97
10,hobart,AU,-42.8794,147.3294,1623262653,90,78,284.07,0.45
11,bluff,NZ,-46.6,168.3333,1623262867,100,84,283.04,6.76
12,saint-philippe,RE,-21.3585,55.7679,1623262868,47,74,294.9,6.69
13,jinchang,CN,38.4953,102.1739,1623262869,90,40,292.24,3.15
14,albany,US,42.6001,-73.9662,1623262870,76,74,304.9,2.8
15,hilo,US,19.7297,-155.09,1623262871,90,84,298.04,3.6
16,saldanha,ZA,-33.0117,17.9442,1623262871,0,84,288.18,4.56
17,tiksi,RU,71.6872,128.8694,1623262872,14,67,275.3,1.82
18,lagoa,PT,39.05,-27.9833,1623262872,76,90,292.19,7.64
19,arraial do cabo,BR,-22.9661,-42.0278,1623262873,40,78,299.13,5.14
20,ushuaia,AR,-54.8,-68.3,1623262874,40,49,280.96,6.69
21,fort nelson,CA,58.8053,-122.7002,1623262874,40,28,292.92,4.12
22,shimoda,JP,34.6667,138.95,1623262875,0,70,292.13,2.98
23,vulcan,RO,45.3833,23.2667,1623262876,34,92,286.99,1.83
24,hithadhoo,MV,-0.6,73.0833,1623262876,6,73,301.43,3.61
25,sioux lookout,CA,50.1001,-91.917,1623262877,90,50,297.19,2.57
26,bredasdorp,ZA,-34.5322,20.0403,1623262877,0,94,288.31,0.94
27,bathsheba,BB,13.2167,-59.5167,1623262878,75,58,303.49,8.41
28,mar del plata,AR,-38.0023,-57.5575,1623262879,90,87,292.09,1.34
29,georgetown,MY,5.4112,100.3354,1623262880,20,89,301.42,1.54
30,ribeira grande,PT,38.5167,-28.7,1623262881,75,94,293.37,6.17
31,the pas,CA,53.8251,-101.2541,1623262881,90,77,288.16,2.62
32,rikitea,PF,-23.1203,-134.9692,1623262882,100,64,295.78,5.15
33,tuktoyaktuk,CA,69.4541,-133.0374,1623262883,75,47,285.15,4.12
34,severo-kurilsk,RU,50.6789,156.125,1623262884,26,91,279.28,3.28
35,vao,NC,-22.6667,167.4833,1623262884,60,66,293.77,3.64
36,yulara,AU,-25.2406,130.9889,1623262885,99,52,279.06,3.09
37,new norfolk,AU,-42.7826,147.0587,1623262886,100,73,283.87,1.79
38,gamba,GA,-2.65,10.0,1623262886,100,89,297.83,3.32
39,codrington,AU,-38.2667,141.9667,1623262887,92,79,285.37,11.15
40,barrow,US,71.2906,-156.7887,1623262645,90,93,272.16,4.63
41,provideniya,RU,64.3833,-173.3,1623262888,100,96,276.32,2.7
42,constitucion,CL,-35.3333,-72.4167,1623262889,75,78,287.43,2.28
43,punta arenas,CL,-53.15,-70.9167,1623262832,75,66,281.21,8.7
44,bethel,US,41.3712,-73.414,1623262890,40,67,305.6,0.89
45,samana,DO,19.2056,-69.3369,1623262891,75,84,302.27,4.12
46,puerto ayora,EC,-0.7393,-90.3518,1623262891,53,81,300.13,4.02
47,ahipara,NZ,-35.1667,173.1667,1623262892,100,93,288.18,2.99
48,acapulco,MX,16.8634,-99.8901,1623262669,90,70,305.05,3.13
49,eyl,SO,7.9803,49.8164,1623262894,8,79,299.93,10.37
50,forestville,US,38.8451,-76.875,1623262824,75,71,303.89,3.09
51,cayenne,GF,4.9333,-52.3333,1623262895,75,90,299.17,0.45
52,busselton,AU,-33.65,115.3333,1623262895,86,89,291.51,13.09
53,yerbogachen,RU,61.2767,108.0108,1623262896,72,60,283.48,2.32
54,cairns,AU,-16.9167,145.7667,1623262897,90,64,295.12,3.6
55,lebu,CL,-37.6167,-73.65,1623262897,99,79,286.31,7.9
56,bunol,ES,39.4167,-0.7833,1623262898,12,65,296.94,4.03
57,gorlice,PL,49.6556,21.1604,1623262899,49,80,289.88,2.27
58,batagay-alyta,RU,67.8006,130.4114,1623262899,100,86,276.7,2.74
59,paamiut,GL,61.994,-49.6678,1623262900,62,94,275.56,4.34
60,polican,AL,40.6122,20.0981,1623262900,96,91,289.27,2.44
61,adrar,MR,20.5022,-10.0711,1623262901,4,6,317.16,6.24
62,udachnyy,RU,66.4167,112.4,1623262902,99,46,283.38,10.29
63,butaritari,KI,3.0707,172.7902,1623262902,67,70,301.47,8.02
64,geraldton,AU,-28.7667,114.6,1623262903,75,88,290.38,9.19
65,gat,IL,31.61,34.7642,1623262681,0,43,301.7,2.47
66,vila velha,BR,-20.3297,-40.2925,1623262708,75,81,298.12,2.24
67,khatanga,RU,71.9667,102.5,1623262904,28,59,279.0,3.27
68,bilma,NE,18.6853,12.9164,1623262905,7,8,310.34,2.36
69,kieta,PG,-6.2167,155.6333,1623262906,100,82,299.58,1.18
70,jamestown,US,42.097,-79.2353,1623262830,40,83,299.92,3.13
71,bagdarin,RU,54.4333,113.6,1623262907,93,96,278.65,0.75
72,labuan,MY,5.2767,115.2417,1623262907,20,94,299.35,0.0
73,ikongo,MG,-21.8833,47.4333,1623262908,88,97,288.47,0.78
74,cremona,IT,45.2333,9.9333,1623262909,39,57,300.8,0.96
75,visnes,NO,59.3556,5.2242,1623262909,0,72,290.69,6.17
76,ponta do sol,PT,32.6667,-17.1,1623262910,17,68,297.43,2.06
77,marolambo,MG,-20.05,48.1167,1623262911,65,97,288.92,1.56
78,bayonet point,US,28.3267,-82.6834,1623262911,8,58,307.62,1.79
79,kungurtug,RU,50.5994,97.5228,1623262912,94,52,283.48,0.8
80,east london,ZA,-33.0153,27.9116,1623262912,0,58,287.67,2.06
81,dikson,RU,73.5069,80.5464,1623262913,100,94,272.99,3.29
82,krasnoselkup,RU,65.7,82.4667,1623262914,92,68,277.36,4.43
83,altay,CN,47.8667,88.1167,1623262914,82,77,287.14,0.42
84,kapaa,US,22.0752,-159.319,1623262915,20,69,299.33,2.24
85,sobolevo,RU,54.4299,31.8996,1623262916,52,86,287.86,3.84
86,sale,MA,34.0389,-6.8166,1623262916,31,83,298.16,2.57
87,barcelos,PT,41.5388,-8.6151,1623262917,9,55,303.66,4.36
88,carutapera,BR,-1.195,-46.02,1623262917,83,74,301.7,3.35
89,beaupre,CA,47.0443,-70.8953,1623262918,23,42,299.65,2.24
90,norman wells,CA,65.282,-126.8329,1623262919,20,42,293.17,5.66
91,ambunti,PG,-4.2365,142.8448,1623262919,100,100,296.03,0.64
92,sao filipe,CV,14.8961,-24.4956,1623262920,41,79,297.48,5.73
93,gazli,UZ,40.1333,63.45,1623262921,0,16,304.64,1.96
94,parrsboro,CA,45.4001,-64.332,1623262921,99,64,299.49,7.15
95,yar-sale,RU,66.8333,70.8333,1623262922,84,50,282.01,2.39
96,beira,MZ,-19.8436,34.8389,1623262923,20,83,295.2,2.57
97,mandalgovi,MN,45.7625,106.2708,1623262923,68,15,289.67,1.96
98,cape town,ZA,-33.9258,18.4232,1623262678,0,90,288.86,2.38
99,caravelas,BR,-17.7125,-39.2481,1623262924,27,66,299.35,3.49
100,matara,LK,5.9485,80.5353,1623262925,90,88,299.23,4.3
101,road town,VG,18.4167,-64.6167,1623262913,75,74,302.7,5.14
102,marabba,SD,12.35,32.1833,1623262926,91,35,306.25,7.58
103,sao jose da coroa grande,BR,-8.8978,-35.1478,1623262927,25,70,299.96,4.27
104,pisco,PE,-13.7,-76.2167,1623262927,20,82,293.16,3.6
105,yellowknife,CA,62.456,-114.3525,1623262868,75,62,286.44,9.26
106,pevek,RU,69.7008,170.3133,1623262929,97,94,273.58,2.78
107,brae,GB,60.3964,-1.353,1623262929,100,97,285.1,4.81
108,ilulissat,GL,69.2167,-51.1,1623262930,20,49,282.16,4.12
109,chuy,UY,-33.6971,-53.4616,1623262931,99,90,289.47,5.76
110,mnogovershinnyy,RU,53.9353,139.9242,1623262931,9,73,289.95,2.67
111,sao felix do xingu,BR,-6.6447,-51.995,1623262932,96,33,306.84,1.8
112,uyuni,BO,-20.4597,-66.825,1623262933,55,20,280.89,9.74
113,torbay,CA,47.6666,-52.7314,1623262933,75,69,284.42,5.14
114,hay river,CA,60.8156,-115.7999,1623262934,40,32,293.14,4.12
115,beibei,CN,29.8256,106.4339,1623262935,100,97,294.41,0.47
116,moorhead,US,46.8739,-96.7676,1623262647,20,44,307.16,2.24
117,gimli,CA,50.6336,-96.9907,1623262936,100,94,297.07,6.69
118,saint george,US,37.1041,-113.5841,1623262936,1,14,306.41,1.34
119,kamsack,CA,51.5667,-101.9009,1623262937,100,92,285.69,5.62
120,novoye devyatkino,RU,60.0727,30.4784,1623262938,96,67,293.1,1.98
121,katakwi,UG,1.8911,33.9661,1623262938,37,65,294.16,2.4
122,vendome,FR,47.8,1.0667,1623262939,61,64,300.44,1.03
123,buraydah,SA,26.326,43.975,1623262940,9,8,311.4,6.76
124,hambantota,LK,6.1241,81.1185,1623262940,98,80,300.46,7.51
125,kodiak,US,57.79,-152.4072,1623262880,90,87,281.88,7.2
126,sibolga,ID,1.7427,98.7792,1623262942,100,85,297.92,1.39
127,chatakonda,IN,17.55,80.65,1623262942,100,77,300.5,0.64
128,nikolskoye,RU,59.7035,30.7861,1623262943,88,70,293.09,1.81
129,oster,UA,50.9506,30.8823,1623262944,38,87,293.09,3.19
130,armilla,ES,37.141,-3.6185,1623262944,20,21,306.48,2.68
131,vaini,TO,-21.2,-175.2,1623262945,20,83,293.24,4.12
132,alpena,US,45.0617,-83.4327,1623262946,75,60,297.33,3.13
133,san juan,AR,-31.5375,-68.5364,1623262777,29,35,292.49,1.16
134,faanui,PF,-16.4833,-151.75,1623262947,82,79,300.06,6.11
135,cherskiy,RU,68.75,161.3,1623262947,100,83,275.87,1.41
136,rocha,UY,-34.4833,-54.3333,1623262948,98,87,289.66,5.82
137,basarabeasca,MD,46.3311,28.9728,1623262949,75,67,295.44,3.32
138,galbshtadt,RU,53.2264,78.9845,1623262949,6,64,282.44,3.85
139,harper,LR,4.375,-7.7169,1623262950,100,81,300.22,2.69
140,flinders,AU,-34.5833,150.8552,1623262950,21,83,277.75,0.45
141,bumba,CD,2.1833,22.4667,1623262951,88,66,299.79,0.84
142,roma,US,43.2128,-75.4557,1623262952,90,85,302.57,4.63
143,kahului,US,20.8947,-156.47,1623262953,40,68,299.17,6.17
144,pilar,BR,-9.5972,-35.9567,1623262953,30,63,300.11,3.44
145,cidreira,BR,-30.1811,-50.2056,1623262954,99,93,290.95,8.22
146,shelburne,CA,44.0787,-80.2041,1623262955,50,76,301.09,3.81
147,grand gaube,MU,-20.0064,57.6608,1623262956,3,71,296.37,3.13
148,cabo san lucas,MX,22.8909,-109.9124,1623262956,1,43,310.66,1.54
149,ancud,CL,-41.8697,-73.8203,1623262957,86,74,283.94,7.76
150,jizan,SA,17.3333,42.6667,1623262957,31,63,306.67,1.7
151,zhangye,CN,38.9342,100.4517,1623262958,93,28,294.9,2.56
152,port alfred,ZA,-33.5906,26.891,1623262959,17,72,291.15,2.4
153,thinadhoo,MV,0.5333,72.9333,1623262960,14,71,302.03,5.28
154,tuatapere,NZ,-46.1333,167.6833,1623262960,100,87,283.05,1.7
155,scottsbluff,US,41.8666,-103.6672,1623262961,1,31,304.28,1.79
156,hoquiam,US,46.9809,-123.8893,1623262962,90,68,290.89,4.12
157,santa vitoria do palmar,BR,-33.5189,-53.3681,1623262963,99,89,289.7,5.47
158,komsomolskiy,UZ,40.4272,71.7189,1623262964,75,68,295.83,3.09
159,rincon,US,32.296,-81.2354,1623262934,75,55,306.1,2.52
160,henties bay,NA,-22.116,14.2845,1623262965,0,79,286.96,3.79
161,kaitangata,NZ,-46.2817,169.8464,1623262965,91,81,282.0,2.65
162,edmonton,CA,53.5501,-113.4687,1623262898,40,60,292.31,3.13
163,longyearbyen,SJ,78.2186,15.6401,1623262966,90,93,275.06,1.54
164,kibungo,RW,-2.1597,30.5427,1623262967,99,64,295.66,1.29
165,talnakh,RU,69.4865,88.3972,1623262968,45,91,270.71,1.37
166,allen,US,41.0706,-85.0144,1623262726,75,68,302.64,3.33
167,puerto gaitan,CO,4.3133,-72.0816,1623262718,100,86,297.92,2.39
168,upernavik,GL,72.7868,-56.1549,1623262969,93,89,275.27,0.97
169,bairiki,KI,1.3292,172.9752,1623262970,40,78,300.15,7.53
170,shingu,JP,33.7333,135.9833,1623262970,0,70,292.54,2.54
171,ellisras,ZA,-23.6649,27.7443,1623262971,92,47,289.01,1.58
172,kavieng,PG,-2.5744,150.7967,1623262972,100,80,300.95,5.78
173,fougamou,GA,-1.2154,10.5838,1623262972,100,91,298.47,0.36
174,tucupita,VE,9.0622,-62.051,1623262973,97,89,299.67,2.71
175,turbat,PK,26.0023,63.044,1623262974,0,74,302.81,4.2
176,gharghoda,IN,22.1667,83.35,1623262974,100,74,300.41,1.98
177,alexandria,EG,31.2156,29.9553,1623262652,0,73,297.04,5.68
178,bonavista,CA,48.6499,-53.1147,1623262975,2,71,284.15,4.93
179,rudnogorsk,RU,57.2639,103.7519,1623262976,82,96,283.8,1.22
180,guerrero negro,MX,27.9769,-114.0611,1623262770,37,61,294.45,6.73
181,nanortalik,GL,60.1432,-45.2371,1623262977,51,85,277.44,2.63
182,airai,TL,-8.9266,125.4092,1623262978,62,94,287.24,1.38
183,olinda,BR,-8.0089,-34.8553,1623262978,40,65,300.0,5.42
184,bogorodskoye,RU,56.55,37.8833,1623262980,88,83,286.6,2.46
185,port augusta,AU,-32.5,137.7667,1623262980,51,64,285.23,9.06
186,jiayuguan,CN,39.8167,98.3,1623262981,95,21,294.17,1.92
187,newcastleton,GB,55.1796,-2.8127,1623262982,100,95,291.34,4.3
188,abha,SA,18.2164,42.5053,1623262982,20,38,296.29,2.56
189,deputatskiy,RU,69.3,139.9,1623262983,100,70,277.65,2.35
190,souillac,MU,-20.5167,57.5167,1623262984,75,78,296.36,6.27
191,tapalpa,MX,19.95,-103.7667,1623262984,94,36,299.22,0.57
192,esperance,AU,-33.8667,121.9,1623262985,100,70,285.06,8.96
193,faya,SA,18.3851,42.4509,1623262986,90,32,296.44,2.52
194,leningradskiy,RU,69.3833,178.4167,1623262987,84,90,272.4,1.54
195,urengoy,RU,65.9667,78.3667,1623262988,81,62,278.19,3.3
196,iqaluit,CA,63.7506,-68.5145,1623262988,75,70,279.0,7.6
197,nahariyya,IL,33.0059,35.0941,1623262989,0,89,296.47,0.83
198,roros,NO,62.5747,11.3842,1623262990,33,48,292.06,5.14
199,moose factory,CA,51.2585,-80.6094,1623262991,75,58,285.15,6.17
200,vangaindrano,MG,-23.35,47.6,1623262991,24,86,291.43,1.93
201,vardo,NO,70.3705,31.1107,1623262992,0,66,287.01,0.51
202,aklavik,CA,68.2191,-135.0107,1623262992,75,42,290.61,4.12
203,bengkulu,ID,-3.8004,102.2655,1623262993,55,91,296.84,1.35
204,kilindoni,TZ,-7.9139,39.6668,1623262994,57,72,299.33,8.06
205,baherden,TM,38.4362,57.4316,1623262994,0,26,304.72,1.35
206,jagtial,IN,18.8,78.9333,1623262995,97,74,299.94,4.6
207,hermanus,ZA,-34.4187,19.2345,1623262996,0,78,288.65,0.99
208,kudinovo,RU,54.9994,36.2533,1623262996,100,95,288.18,3.6
209,bambous virieux,MU,-20.3428,57.7575,1623262997,75,78,296.29,7.05
210,tagusao,PH,9.1924,117.8141,1623262998,100,79,300.17,2.49
211,varberg,SE,57.1056,12.2508,1623262999,7,74,291.51,2.41
212,nome,US,64.5011,-165.4064,1623262999,90,81,281.02,3.6
213,kazerun,IR,29.6195,51.6541,1623263000,0,9,302.38,1.83
214,traverse city,US,44.7631,-85.6206,1623262951,20,57,306.56,2.06
215,hasaki,JP,35.7333,140.8333,1623263001,0,83,291.37,3.42
216,iracoubo,GF,5.4802,-53.2011,1623263001,100,88,298.24,5.28
217,yeniseysk,RU,58.4497,92.1703,1623263002,58,80,275.76,1.85
218,horsham,GB,51.064,-0.3272,1623263003,0,58,298.16,4.61
219,marzuq,YE,14.4,46.4667,1623263003,50,37,302.99,1.68
220,college,US,64.8569,-147.8028,1623263004,75,75,288.26,0.0
221,tasiilaq,GL,65.6145,-37.6368,1623263005,97,87,278.24,2.9
222,port lincoln,AU,-34.7333,135.8667,1623263005,85,70,285.37,6.17
223,lakes entrance,AU,-37.8811,147.981,1623263006,100,97,284.92,3.94
224,vostok,RU,46.4856,135.8833,1623263007,100,76,288.25,1.86
225,lompoc,US,34.6391,-120.4579,1623263007,40,69,297.91,5.36
226,manzhouli,CN,49.6,117.4333,1623263008,54,83,283.85,5.09
227,puerto escondido,MX,15.85,-97.0667,1623263009,75,62,304.61,1.54
228,katsuura,JP,35.1333,140.3,1623263009,0,89,294.32,2.76
229,thompson,CA,55.7435,-97.8558,1623263010,86,34,294.84,4.32
230,joshimath,IN,30.5667,79.5667,1623263011,55,63,294.75,1.78
231,saskylakh,RU,71.9167,114.0833,1623263011,81,59,277.62,3.3
232,sinegorye,RU,62.0788,150.477,1623263012,83,72,282.96,3.52
233,west plains,US,36.7281,-91.8524,1623263012,75,69,302.71,1.01
234,changli,CN,39.7042,119.1506,1623263013,100,94,293.12,2.63
235,belyy yar,RU,53.6039,91.3903,1623263014,40,76,284.09,3.39
236,kayalpattinam,IN,8.5667,78.1167,1623263014,96,64,302.37,4.06
237,qaanaaq,GL,77.484,-69.3632,1623263015,14,74,278.29,2.74
238,waipawa,NZ,-41.4122,175.5153,1623263016,29,87,285.94,3.17
239,avarua,CK,-21.2078,-159.775,1623263016,75,89,299.18,2.57
240,attock,PK,33.7695,72.3611,1623263017,0,12,309.13,2.15
241,itai,BR,-23.4178,-49.0906,1623263018,52,51,297.61,1.73
242,bandarbeyla,SO,9.4942,50.8122,1623263018,1,80,299.9,13.96
243,pangoa,PE,-12.1167,-73.0,1623263019,80,63,301.1,1.99
244,tara,RU,56.8944,74.371,1623263019,49,72,279.5,2.8
245,bethanien,NA,-26.502,17.1583,1623263020,0,33,287.24,3.11
246,mahebourg,MU,-20.4081,57.7,1623263021,75,78,296.31,4.12
247,tengushevo,RU,54.7686,42.7189,1623263021,95,96,288.58,6.24
248,zapolyarnyy,RU,69.4154,30.8136,1623262874,90,63,284.75,3.44
249,bar-le-duc,FR,48.75,5.1667,1623263022,81,89,296.6,3.05
250,turayf,SA,31.6725,38.6637,1623263023,0,17,302.29,2.57
251,zheleznodorozhnyy,RU,55.7503,38.0042,1623263024,84,91,291.13,3.56
252,idaho falls,US,43.4666,-112.0341,1623263024,20,34,298.71,0.45
253,zemetchino,RU,53.4973,42.6163,1623263025,85,96,288.66,3.15
254,ossora,RU,59.2353,163.0719,1623263026,42,72,281.57,3.47
255,kumba,CM,4.6363,9.4469,1623263027,97,94,296.91,0.93
256,panguna,PG,-6.3164,155.4848,1623263027,100,96,293.5,0.88
257,byron bay,AU,-28.65,153.6167,1623262853,0,63,282.99,3.37
258,ustka,PL,54.5805,16.8619,1623263028,11,83,288.57,3.96
259,novyy urgal,RU,51.0736,132.5642,1623263029,100,93,288.38,1.56
260,castro,BR,-24.7911,-50.0119,1623263030,97,73,292.42,1.39
261,nuevitas,CU,21.5453,-77.2644,1623263030,82,76,297.84,5.56
262,namibe,AO,-15.1961,12.1522,1623263031,0,68,294.61,5.41
263,kotelnich,RU,58.3089,48.348,1623263032,13,69,285.04,2.08
264,atar,MR,20.5169,-13.0499,1623263032,11,6,318.43,6.21
265,padilla,CO,3.2204,-76.3139,1623263033,97,90,299.91,0.65
266,turukhansk,RU,65.8167,87.9833,1623263033,75,72,275.38,4.72
267,harbour breton,CA,47.4833,-55.7983,1623263034,99,59,285.17,1.8
268,havre-saint-pierre,CA,50.2334,-63.5986,1623263035,40,44,286.35,4.63
269,san quintin,MX,30.4833,-115.95,1623263035,94,66,293.29,8.64
270,mecca,SA,21.4267,39.8261,1623263036,62,28,308.06,3.12
271,honiara,SB,-9.4333,159.95,1623263037,91,83,298.13,2.23
272,saint-ambroise,CA,48.5501,-71.3324,1623263037,3,29,294.58,5.97
273,viedma,AR,-40.8135,-62.9967,1623263038,100,63,288.78,6.92
274,kavaratti,IN,10.5669,72.642,1623263038,91,74,301.95,7.05
275,sorong,ID,-0.8833,131.25,1623263039,100,87,299.14,3.26
276,khandyga,RU,62.6667,135.6,1623263040,1,77,277.69,2.13
277,lalmohan,BD,22.3384,90.7419,1623263040,100,81,301.16,3.46
278,sanchazi,CN,42.0817,126.6003,1623263042,100,86,289.18,0.97
279,mabaruma,GY,8.2,-59.7833,1623263042,100,94,298.31,2.27
280,lerwick,GB,60.1545,-1.1494,1623263043,100,97,285.15,4.71
281,flin flon,CA,54.7682,-101.865,1623263043,75,72,288.06,3.91
282,acireale,IT,37.6125,15.1663,1623263044,40,71,295.22,0.71
283,carauari,BR,-4.8828,-66.8958,1623263045,58,74,301.84,1.6
284,antsohihy,MG,-14.8796,47.9875,1623263045,1,59,295.36,4.46
285,beisfjord,NO,68.3751,17.5988,1623263046,85,67,288.73,1.85
286,laguna,US,38.421,-121.4238,1623263047,1,43,294.88,2.24
287,normandin,CA,48.8333,-72.5321,1623263048,4,30,293.32,6.17
288,salta,AR,-24.7859,-65.4117,1623263048,0,52,294.48,2.24
289,golynki,RU,54.8696,31.3861,1623263049,25,89,287.51,3.11
290,karratha,AU,-20.7377,116.8463,1623263050,97,58,296.81,3.44
291,corumba,BR,-19.0092,-57.6533,1623263051,75,73,298.1,1.03
292,san cristobal,VE,7.7669,-72.225,1623263052,94,52,299.25,2.97
293,dong hoi,VN,17.4833,106.6,1623263052,76,78,300.11,4.19
294,quatre cocos,MU,-20.2078,57.7625,1623263053,16,72,296.21,6.99
295,sola,VU,-13.8833,167.55,1623263053,75,78,299.52,4.63
296,matagami,CA,49.7502,-77.6328,1623263054,1,41,287.21,5.35
297,okhotsk,RU,59.3833,143.3,1623263055,49,88,279.03,3.44
298,san patricio,US,28.017,-97.5169,1623263055,43,62,306.2,7.39
299,kidal,ML,18.4411,1.4078,1623263056,3,7,314.22,4.95
300,dongli,CN,23.5656,116.8194,1623263057,20,89,299.14,1.94
301,katihar,IN,25.5333,87.5833,1623263057,64,67,301.11,2.85
302,lewisporte,CA,49.2499,-55.0482,1623263058,2,37,294.34,3.79
303,surab,PK,28.4914,66.2585,1623263058,4,10,302.25,2.72
304,tabou,CI,4.423,-7.3528,1623263059,100,80,300.28,2.59
305,baghmara,IN,23.795,86.2085,1623263060,100,54,304.28,3.56
306,carnarvon,AU,-24.8667,113.6333,1623263060,90,1,289.19,5.14
307,chumikan,RU,54.7183,135.315,1623263061,67,85,281.8,0.17
308,tezu,IN,27.9167,96.1667,1623263062,92,86,297.73,1.31
309,lavrentiya,RU,65.5833,-171.0,1623263062,100,99,273.93,1.77
310,marmande,FR,44.5,0.1667,1623263063,36,55,301.26,4.54
311,kirakira,SB,-10.4544,161.9205,1623263064,78,82,299.69,3.18
312,salalah,OM,17.0151,54.0924,1623262860,75,94,301.2,3.6
313,hualmay,PE,-11.0964,-77.6139,1623263065,61,72,294.07,5.04
314,tromso,NO,69.6496,18.957,1623263066,40,67,290.51,3.6
315,wajima,JP,37.4,136.9,1623263066,1,84,290.89,3.51
316,alice springs,AU,-23.7,133.8833,1623262815,57,74,272.9,2.11
317,mongagua,BR,-24.0931,-46.6208,1623263068,70,84,299.78,2.05
318,ishinomaki,JP,38.4167,141.3,1623263068,1,90,288.4,0.98
319,tual,ID,-5.6667,132.75,1623263069,93,80,300.35,7.79
320,benguela,AO,-12.5763,13.4055,1623263070,25,64,297.39,0.83
321,port elizabeth,ZA,-33.918,25.5701,1623262833,0,70,290.01,1.03
322,livermore,US,37.6819,-121.768,1623262958,1,51,293.4,2.24
323,yablonovo,RU,50.8523,37.3574,1623263072,41,84,289.07,1.29
324,klaksvik,FO,62.2266,-6.589,1623263072,100,99,283.66,6.91
325,kristiansund,NO,63.1115,7.732,1623263073,39,63,292.18,2.57
326,krasnyy chikoy,RU,50.3643,108.7512,1623263074,2,90,281.22,1.34
327,oranjestad,AW,12.524,-70.027,1623262837,40,62,305.12,10.29
328,panalingaan,PH,8.7842,117.4231,1623263075,100,79,299.77,0.94
329,pooler,US,32.1155,-81.2471,1623263076,75,58,306.16,2.57
330,toucheng,TW,24.8592,121.8233,1623263077,90,92,300.87,2.93
331,bourail,NC,-21.5667,165.4833,1623263077,3,80,290.63,1.87
332,beringovskiy,RU,63.05,179.3167,1623263078,100,89,278.18,1.15
333,okha,RU,53.5739,142.9478,1623263079,17,83,282.67,3.78
334,birjand,IR,32.8663,59.2211,1623263080,0,14,301.41,4.12
335,bereda,ES,43.2686,-7.5406,1623263081,3,78,293.94,2.9
336,along,IN,28.1667,94.7667,1623263082,53,91,295.2,0.88
337,yenagoa,NG,4.9247,6.2642,1623263082,100,96,296.97,0.75
338,luderitz,NA,-26.6481,15.1594,1623263083,0,74,289.19,3.63
339,ketchikan,US,55.3422,-131.6461,1623263084,75,82,285.41,5.66
340,la rioja,ES,42.25,-2.5,1623263084,57,72,296.51,3.66
341,tautira,PF,-17.7333,-149.15,1623263085,93,80,300.16,6.36
342,saint-francois,FR,46.4154,3.9054,1623263085,50,75,295.05,4.12
343,winslow,US,35.0242,-110.6974,1623263086,1,9,303.69,0.89
344,ahuimanu,US,21.4447,-157.8378,1623263087,90,65,299.99,4.12
345,akonolinga,CM,3.7667,12.25,1623263088,100,79,297.55,0.61
346,kruisfontein,ZA,-34.0033,24.7314,1623263089,12,75,287.65,1.59
347,la maddalena,IT,41.2142,9.4083,1623263090,35,80,299.18,7.35
348,haskovo,BG,41.9403,25.5694,1623263091,29,76,291.94,0.8
349,port hedland,AU,-20.3167,118.5667,1623263092,40,23,295.18,4.12
350,rawson,AR,-43.3002,-65.1023,1623262851,100,46,289.3,9.63
351,mercedes,AR,-34.6515,-59.4307,1623263093,99,65,291.4,3.31
352,findlay,US,41.0442,-83.6499,1623263094,20,61,302.12,3.6
353,roald,NO,62.5833,6.1333,1623263094,0,72,294.91,2.57
354,kotaparh,IN,19.15,82.35,1623263095,100,80,297.97,4.75
355,bani walid,LY,31.7566,13.9942,1623263095,94,44,296.28,4.31
356,terme,TR,41.2092,36.9739,1623263096,42,91,290.11,2.68
357,labuhan,ID,-6.8844,112.2051,1623263097,29,84,298.68,1.98
358,rodeo,US,38.033,-122.2669,1623263097,1,57,294.07,6.26
359,emerald,AU,-23.5333,148.1667,1623263098,0,61,280.23,2.57
360,xining,CN,36.6167,101.7667,1623263099,7,63,285.4,1.5
361,tucuma,BR,-0.1833,-50.05,1623263099,86,87,300.49,2.52
362,rio grande,BR,-32.035,-52.0986,1623263100,100,89,292.21,7.75
363,praxedis guerrero,MX,31.3667,-106.0167,1623263101,65,9,309.0,2.18
364,alamosa,US,37.4695,-105.87,1623263101,1,15,297.88,1.91
365,hoi an,VN,15.8794,108.335,1623263102,100,76,299.13,2.92
366,conde,BR,-7.2597,-34.9075,1623263067,75,74,300.85,6.27
367,plouzane,FR,48.3833,-4.6167,1623263104,90,85,292.16,4.63
368,jerusalem,IL,31.769,35.2163,1623263105,0,40,297.43,1.79
369,fukue,JP,32.6881,128.8419,1623263106,100,81,295.59,2.46
370,broome,US,42.2506,-75.833,1623263039,75,61,303.54,0.45
371,sangmelima,CM,2.9333,11.9833,1623263107,96,84,296.23,0.5
372,kropotkin,RU,45.4375,40.5756,1623263107,65,84,288.66,3.1
373,sovetskaya gavan,RU,48.9723,140.2878,1623263108,21,97,283.36,2.18
374,port hardy,CA,50.6996,-127.4199,1623263108,75,93,284.25,3.6
375,obo,CF,5.3998,26.4869,1623263109,41,75,296.62,1.86
376,grindavik,IS,63.8424,-22.4338,1623263110,90,93,283.12,5.65
377,camocim,BR,-2.9022,-40.8411,1623263111,57,85,299.78,5.63
378,san rafael,AR,-34.6177,-68.3301,1623263112,84,24,291.9,1.95
379,pasighat,IN,28.0667,95.3333,1623263112,70,91,297.62,1.04
380,qasigiannguit,GL,68.8193,-51.1922,1623263114,42,60,282.29,2.33
381,inhambane,MZ,-23.865,35.3833,1623263114,20,88,292.14,0.0
382,lopatyn,UA,50.2202,24.8483,1623263115,24,87,288.13,3.34
383,zalantun,CN,48.0,122.7167,1623263117,33,64,287.12,1.53
384,puerto carreno,CO,6.189,-67.4859,1623263004,96,59,303.58,1.9
385,dwarka,IN,22.2394,68.9678,1623263118,45,78,302.71,8.83
386,linhares,BR,-19.3911,-40.0722,1623263119,64,62,299.83,2.48
387,mattawa,US,46.7379,-119.9028,1623263119,90,30,294.08,1.63
388,magadan,RU,59.5667,150.8,1623263120,92,93,277.38,2.5
389,ayan,RU,56.45,138.1667,1623263121,47,86,281.69,3.05
390,capoterra,IT,39.1763,8.9718,1623263121,20,62,297.82,1.71
391,jiran,IN,24.3167,74.8833,1623263122,33,50,304.8,10.04
392,jacareacanga,BR,-6.2222,-57.7528,1623263123,0,62,304.32,1.03
393,nemuro,JP,43.3236,145.575,1623263124,6,95,281.83,2.7
394,lata,PT,40.1629,-8.3327,1623263124,26,48,301.51,3.39
395,mount isa,AU,-20.7333,139.5,1623263125,28,53,281.02,3.09
396,bilibino,RU,68.0546,166.4372,1623263126,92,77,276.5,0.75
397,santa cruz,BO,-17.8,-63.1667,1623263126,75,73,298.18,6.17
398,homer,US,59.6425,-151.5483,1623263127,90,66,285.97,0.0
399,pimentel,PE,-6.8367,-79.9342,1623263128,90,80,294.31,1.34
400,seoul,KR,37.5683,126.9778,1623262661,93,83,295.88,0.69
401,noumea,NC,-22.2763,166.4572,1623263129,13,99,292.59,1.92
402,faranah,GN,10.0404,-10.7434,1623263130,92,91,296.95,3.26
403,anadyr,RU,64.75,177.4833,1623263130,90,100,276.43,1.64
404,nizhniy chir,RU,48.3597,43.0865,1623263131,70,84,291.02,3.88
405,valle de allende,MX,26.9333,-105.4,1623263131,2,14,306.86,2.79
406,merke,KZ,42.8728,73.1786,1623263132,55,34,294.29,3.33
407,tumbagaan,PH,5.3656,120.3139,1623263133,75,77,299.77,1.02
408,raudeberg,NO,61.9875,5.1352,1623263133,97,83,293.03,8.89
409,kosa,RU,59.9445,54.9977,1623263134,11,52,283.47,1.12
410,melita,CA,49.2681,-100.9967,1623263135,94,84,300.35,5.82
411,amol,IR,36.4696,52.3507,1623263135,36,77,293.98,0.74
412,makakilo city,US,21.3469,-158.0858,1623262891,1,61,299.33,4.12
413,inuvik,CA,68.3499,-133.7218,1623263136,75,30,290.63,4.63
414,vrangel,RU,42.7297,133.0839,1623263137,53,74,287.27,1.56
415,novoagansk,RU,61.9449,76.6625,1623263138,55,70,276.92,0.3
416,oktyabrskoye,RU,43.0645,44.7417,1623263138,99,88,289.23,0.96
417,mehamn,NO,71.0357,27.8492,1623263139,99,68,288.1,2.05
418,hun,LY,29.1268,15.9477,1623263139,34,21,302.48,12.8
419,maracai,BR,-22.6106,-50.6672,1623263140,97,53,298.35,1.14
420,rafaela,AR,-31.2503,-61.4867,1623263141,45,68,295.96,0.45
421,kristinehamn,SE,59.3098,14.1081,1623263141,12,64,294.14,4.31
422,hadejia,NG,12.4498,10.0444,1623263143,100,28,308.88,4.61
423,san isidro,PE,-12.1167,-77.05,1623263144,90,80,293.85,4.76
424,kikwit,CD,-5.041,18.8162,1623263144,53,38,300.88,1.78
425,peruc,CZ,50.3425,13.9599,1623263145,98,73,294.72,1.34
426,namatanai,PG,-3.6667,152.4333,1623263147,99,81,299.11,3.45
427,kabompo,ZM,-13.5927,24.2008,1623263147,8,48,290.4,2.37
428,orodara,BF,10.9492,-4.9342,1623263148,84,36,305.36,2.27
429,golyshmanovo,RU,56.3979,68.3728,1623263148,32,70,281.76,2.64
430,inverness,GB,57.4791,-4.224,1623262900,75,77,294.1,3.63
431,palu,ID,-0.8917,119.8707,1623263149,44,94,297.1,1.05
432,saint anthony,US,45.0205,-93.218,1623263150,1,47,307.5,0.45
433,karaman,TR,37.0833,33.25,1623263151,50,28,291.6,2.84
434,narsaq,GL,60.9167,-46.05,1623263151,4,63,289.27,3.48
435,veinticinco de mayo,AR,-35.4323,-60.1727,1623263152,100,78,290.4,0.89
436,kibre mengist,ET,5.8833,38.9833,1623263153,34,85,288.01,0.88
437,huanren,CN,41.2647,125.3667,1623263153,97,93,289.92,1.19
438,samarai,PG,-10.6167,150.6667,1623263154,90,83,299.34,2.37
439,zhezkazgan,KZ,47.8043,67.7144,1623263155,42,45,293.83,4.66
440,kargil,IN,34.5667,76.1,1623263155,23,49,286.32,2.85
441,puerto baquerizo moreno,EC,-0.9,-89.6,1623262958,40,69,299.7,5.66
442,naze,JP,28.3667,129.4833,1623263156,100,88,296.55,4.89
443,jining,CN,35.405,116.5814,1623263157,100,1,301.48,0.7
444,vanimo,PG,-2.6741,141.3028,1623263158,100,87,298.33,1.63
445,nelson bay,AU,-32.7167,152.15,1623263158,86,93,281.46,4.05
446,vikulovo,RU,56.8167,70.6107,1623263159,8,58,280.96,1.52
447,hofn,IS,64.2539,-15.2082,1623263160,90,93,283.16,4.12
448,kovdor,RU,67.5662,30.4758,1623263160,87,46,291.49,1.61
449,reforma,MX,18.1,-91.0167,1623263161,100,36,309.23,4.27
450,nishihara,JP,26.1842,127.7558,1623263162,75,91,298.18,3.89
451,freeport,US,40.6576,-73.5832,1623263093,1,59,307.75,1.34
452,chapais,CA,49.7834,-74.8492,1623263163,12,22,289.03,5.97
453,coquimbo,CL,-29.9533,-71.3436,1623263013,20,77,289.0,2.58
454,evensk,RU,61.95,159.2333,1623263164,96,86,280.33,5.77
455,atikokan,CA,48.7555,-91.6216,1623263165,47,35,303.15,5.81
456,poum,NC,-20.2333,164.0167,1623263165,27,69,295.99,7.21
457,pacific grove,US,36.6177,-121.9166,1623263144,1,69,293.16,1.79
458,chimbote,PE,-9.0853,-78.5783,1623263094,88,75,294.27,5.55
459,sinnamary,GF,5.3833,-52.95,1623263167,100,87,298.55,5.24
460,vila,PT,42.0304,-8.1588,1623263168,2,45,297.22,2.3
461,itoman,JP,26.1247,127.6694,1623263169,40,90,298.58,3.6
462,tiznit,MA,29.5833,-9.5,1623263169,97,25,304.06,2.71
463,bull savanna,JM,17.8868,-77.5902,1623263170,82,62,301.89,5.59
464,gazanjyk,TM,39.2446,55.5154,1623263171,0,26,303.52,2.16
465,ketegyhaza,HU,46.5333,21.1833,1623263172,29,73,298.24,3.26
466,kayerkan,RU,69.3497,87.7602,1623263173,65,93,270.71,1.43
467,iwanai,JP,42.9744,140.5089,1623263173,1,84,287.22,1.15
468,sur,OM,22.5667,59.5289,1623263174,3,68,304.86,5.45
469,itarema,BR,-2.9248,-39.9167,1623263175,46,80,300.75,5.95
470,pingyin,CN,36.2831,116.4453,1623263175,100,56,296.81,6.27
471,bongandanga,CD,1.5,21.05,1623263176,90,71,298.72,1.69
472,berezovka,BY,53.7214,25.4993,1623263177,66,90,289.45,2.81
473,nizhniy tsasuchey,RU,50.5167,115.1333,1623263177,97,87,283.76,3.28
474,ballina,AU,-28.8667,153.5667,1623263178,0,76,283.03,2.57
475,mezen,RU,65.8522,44.24,1623263178,95,54,287.01,1.56
476,wattegama,LK,6.7989,81.4808,1623263180,99,84,297.75,3.24
477,port-cartier,CA,50.0334,-66.8654,1623262985,21,29,288.67,5.44
478,mushie,CD,-3.0167,16.9,1623263181,100,46,303.0,1.04
479,marawi,PH,7.9986,124.2928,1623263181,100,95,292.4,0.81
480,goldap,PL,54.3063,22.3036,1623263182,8,83,288.72,2.93
481,hervey bay,AU,-25.2986,152.8535,1623263182,0,69,281.49,3.98
482,qinnan,CN,33.2531,119.9133,1623263183,100,92,296.59,1.14
483,ankazobe,MG,-18.3167,47.1167,1623263184,3,89,286.38,2.8
484,kiruna,SE,67.8557,20.2251,1623263184,76,34,291.66,5.14
485,clyde river,CA,70.4692,-68.5914,1623263185,20,70,278.28,9.77
486,hamilton,US,39.1834,-84.5333,1623263186,90,95,297.15,0.45
487,namie,JP,37.4833,141.0,1623263186,0,91,290.91,1.39
488,owosso,US,42.9978,-84.1766,1623263187,75,58,304.92,2.57
489,viransehir,TR,37.2353,39.7631,1623263188,4,31,299.42,9.08
490,sulphur springs,US,33.1385,-95.6011,1623263188,90,62,304.57,0.0
491,bandar-e lengeh,IR,26.5579,54.8807,1623263189,0,70,306.21,4.12
492,sisimiut,GL,66.9395,-53.6735,1623263190,34,74,279.17,7.79
493,brandon,US,27.9378,-82.2859,1623262836,40,60,307.92,1.79
494,kolo,PL,52.2002,18.6387,1623263191,26,69,294.85,4.08
495,pundaguitan,PH,6.3711,126.1689,1623263192,93,75,301.04,2.86
496,kasaragod,IN,12.5,75.0,1623263193,99,90,297.74,1.53
497,praia da vitoria,PT,38.7333,-27.0667,1623263194,75,73,296.29,7.57
498,vestmanna,FO,62.1564,-7.1664,1623263194,90,100,282.66,4.81
499,khani,GE,41.9563,42.9566,1623263195,100,93,287.91,1.11
500,caucaia,BR,-3.7361,-38.6531,1623263139,75,76,303.75,3.64
501,sao joao da barra,BR,-21.6403,-41.0511,1623263196,99,76,299.2,4.14
502,san luis,AR,-33.295,-66.3356,1623263197,47,48,292.0,5.25
503,turgoyak,RU,55.15,60.1183,1623263198,77,67,286.0,1.27
504,kawambwa,ZM,-9.7915,29.0791,1623263198,31,58,291.42,0.7
505,inverell,AU,-29.7833,151.1167,1623263199,92,89,278.21,1.79
506,suntar,RU,62.1444,117.6319,1623263199,1,71,280.02,3.32
507,conakry,GN,9.538,-13.6773,1623263200,75,88,298.19,3.09
508,tadine,NC,-21.55,167.8833,1623263201,48,69,292.73,2.31
509,hirara,JP,24.8,125.2833,1623263201,95,80,300.51,5.66
510,kemijarvi,FI,66.7131,27.4306,1623263202,91,48,292.37,2.62
511,gibraleon,ES,37.3763,-6.969,1623263203,7,28,303.1,6.43
512,masallatah,LY,32.6167,14.0,1623263203,49,64,293.64,2.84
513,westport,US,41.1415,-73.3579,1623263204,20,68,307.14,0.45
514,ilheus,BR,-14.7889,-39.0494,1623263205,40,78,300.05,4.12
515,arequipa,PE,-16.3989,-71.535,1623263205,0,13,292.19,4.12
516,sorland,NO,67.667,12.6934,1623263206,91,88,286.19,6.72
517,esso,RU,55.9333,158.7,1623263207,96,87,282.07,2.02
518,kashi,CN,39.4547,75.9797,1623263208,100,27,301.07,2.49
519,los llanos de aridane,ES,28.6585,-17.9182,1623263209,0,53,296.01,3.05
520,tateyama,JP,34.9833,139.8667,1623263209,0,81,294.27,2.7
521,acarau,BR,-2.8856,-40.12,1623263210,43,82,300.52,5.92
522,hamina,FI,60.5697,27.1979,1623263211,3,54,294.75,1.36
523,burnie,AU,-41.0667,145.9167,1623263211,75,75,285.88,7.39
524,fortuna,US,40.5982,-124.1573,1623263212,20,61,291.72,1.34
525,broken hill,AU,-31.95,141.4333,1623263212,90,75,278.99,10.8
526,carbonia,IT,39.1672,8.5222,1623262979,2,78,297.51,4.44
527,kiama,AU,-34.6833,150.8667,1623263214,21,84,277.86,0.89
528,kitimat,CA,54.0524,-128.6534,1623263214,100,89,285.36,0.89
529,ust-kan,RU,50.9276,84.761,1623263215,100,92,282.14,0.43
530,bucerias,MX,20.75,-105.3333,1623263035,1,55,305.14,4.04
531,jadu,LY,31.953,12.0261,1623263216,76,34,295.94,6.18
532,arshan,RU,46.2732,44.22,1623263217,98,68,293.4,5.46
533,krasnomayskiy,RU,57.6194,34.4099,1623263218,62,81,286.6,2.28
534,maumere,ID,-8.6199,122.2111,1623263218,35,79,298.54,3.03
535,noshiro,JP,40.2039,140.0242,1623263219,1,86,286.95,1.64
536,changuinola,PA,9.4333,-82.5167,1623263220,95,75,301.1,1.8
537,goderich,CA,43.7501,-81.7165,1623263221,87,69,302.71,5.66
538,goure,NE,13.9835,10.2704,1623263221,90,17,310.38,3.04
539,mwanza,TZ,-2.5167,32.9,1623263222,6,61,296.37,2.66
540,hobyo,SO,5.3505,48.5268,1623263223,41,84,299.4,10.99
541,tomatlan,MX,19.9333,-105.25,1623263223,73,36,308.63,3.5
542,kenai,US,60.5544,-151.2583,1623263224,90,61,285.94,4.12
543,kalach-na-donu,RU,48.691,43.5264,1623263046,60,83,293.73,3.12
544,sekoma,BW,-24.4,23.8833,1623263225,56,41,290.38,3.11
545,morant bay,JM,17.8815,-76.4093,1623263226,83,66,303.94,4.81
546,alofi,NU,-19.0595,-169.9187,1623263227,98,73,297.09,3.09
547,marystown,CA,47.1666,-55.1483,1623263228,97,57,286.58,1.98
548,comodoro rivadavia,AR,-45.8667,-67.5,1623263228,0,31,289.07,13.38
549,mingshui,CN,36.7167,117.5,1623263229,100,77,295.79,3.51
550,toba tek singh,PK,30.9743,72.4827,1623263230,0,23,313.17,5.89
551,najran,SA,17.4924,44.1277,1623263230,6,13,305.51,1.2
552,marevo,RU,57.3146,32.0804,1623263231,80,88,288.55,2.57
553,kaeo,NZ,-35.1,173.7833,1623263231,100,96,288.89,3.75
554,mankono,CI,8.0586,-6.1897,1623263232,98,48,304.92,3.11
555,gizo,SB,-8.103,156.8419,1623263233,100,77,300.92,3.86
556,husavik,IS,66.0449,-17.3389,1623263233,100,87,282.1,1.3
557,aksarka,RU,66.5606,67.7975,1623263234,94,60,281.86,3.21
558,nyurba,RU,63.2842,118.3319,1623263235,5,77,278.02,2.26
559,bayan,CN,46.0833,127.4,1623263235,100,74,293.31,4.45
